{
"type": "FeatureCollection",
"name": "theater point",
"crs": { "type": "name", "properties": { "name": "urn:ogc:def:crs:OGC:1.3:CRS84" } },
"features": [
{ "type": "Feature", "properties": { "id": 1, "name": "Vivian Beaumont Theater" }, "geometry": { "type": "Point", "coordinates": [ -73.984481638958798, 40.773552096493809 ] } },
{ "type": "Feature", "properties": { "id": 2, "name": "Studio 54" }, "geometry": { "type": "Point", "coordinates": [ -73.983780845415652, 40.764348919490182 ] } },
{ "type": "Feature", "properties": { "id": 3, "name": "Broadway Theatre" }, "geometry": { "type": "Point", "coordinates": [ -73.983390451063229, 40.763393823062188 ] } },
{ "type": "Feature", "properties": { "id": 4, "name": "Broadway Theatre" }, "geometry": { "type": "Point", "coordinates": [ -73.984254155382729, 40.763396439783484 ] } },
{ "type": "Feature", "properties": { "id": 5, "name": "Neil Simon Theatre\n" }, "geometry": { "type": "Point", "coordinates": [ -73.984561634120482, 40.763022247592673 ] } },
{ "type": "Feature", "properties": { "id": 6, "name": "Gershwin Theatre" }, "geometry": { "type": "Point", "coordinates": [ -73.985156519107591, 40.762456212482213 ] } },
{ "type": "Feature", "properties": { "id": 7, "name": "Circle in the Square Theatre" }, "geometry": { "type": "Point", "coordinates": [ -73.984916556136497, 40.762300423596741 ] } },
{ "type": "Feature", "properties": { "id": 8, "name": "Winter Garden Theatre" }, "geometry": { "type": "Point", "coordinates": [ -73.983518676606494, 40.761469543373885 ] } },
{ "type": "Feature", "properties": { "id": 9, "name": "Ambassador Theatre" }, "geometry": { "type": "Point", "coordinates": [ -73.984985116985371, 40.761232971410799 ] } },
{ "type": "Feature", "properties": { "id": 10, "name": "Eugene O'Neill Theatre" }, "geometry": { "type": "Point", "coordinates": [ -73.985754522067296, 40.761091604835833 ] } },
{ "type": "Feature", "properties": { "id": 11, "name": "Walter Kerr Theatre" }, "geometry": { "type": "Point", "coordinates": [ -73.985586928881119, 40.760690583731908 ] } },
{ "type": "Feature", "properties": { "id": 12, "name": "Longacre Theatre" }, "geometry": { "type": "Point", "coordinates": [ -73.985952586741845, 40.760344376516379 ] } },
{ "type": "Feature", "properties": { "id": 13, "name": "Ethel Barrymore Theatre" }, "geometry": { "type": "Point", "coordinates": [ -73.986131606736151, 40.760107800548681 ] } },
{ "type": "Feature", "properties": { "id": 14, "name": "Samuel J. Friedman Theatre" }, "geometry": { "type": "Point", "coordinates": [ -73.986744845440057, 40.76039053758263 ] } },
{ "type": "Feature", "properties": { "id": 15, "name": "James Earl Jones Theatre" }, "geometry": { "type": "Point", "coordinates": [ -73.983076840024779, 40.75913263706186 ] } },
{ "type": "Feature", "properties": { "id": 16, "name": "Lena Horne Theatre" }, "geometry": { "type": "Point", "coordinates": [ -73.987003853091394, 40.759905844788115 ] } },
{ "type": "Feature", "properties": { "id": 17, "name": "Lunt-Fontanne Theatre" }, "geometry": { "type": "Point", "coordinates": [ -73.985895452701129, 40.759167258495665 ] } },
{ "type": "Feature", "properties": { "id": 18, "name": "Palace Theatre" }, "geometry": { "type": "Point", "coordinates": [ -73.984345215729135, 40.758847009544851 ] } },
{ "type": "Feature", "properties": { "id": 19, "name": "Palace Theatre" }, "geometry": { "type": "Point", "coordinates": [ -73.987106694364726, 40.759196109676729 ] } },
{ "type": "Feature", "properties": { "id": 20, "name": "Richard Rodgers Theatre\n" }, "geometry": { "type": "Point", "coordinates": [ -73.986744845440057, 40.75903742802587 ] } },
{ "type": "Feature", "properties": { "id": 21, "name": "Marquis Theatre" }, "geometry": { "type": "Point", "coordinates": [ -73.986371569707259, 40.758939333724975 ] } },
{ "type": "Feature", "properties": { "id": 22, "name": "Music Box Theatre" }, "geometry": { "type": "Point", "coordinates": [ -73.987160019469414, 40.758872975733468 ] } },
{ "type": "Feature", "properties": { "id": 23, "name": "Lyceum Theatre" }, "geometry": { "type": "Point", "coordinates": [ -73.984524235723455, 40.757785272256996 ] } },
{ "type": "Feature", "properties": { "id": 24, "name": "Al Hirschfeld Theatre" }, "geometry": { "type": "Point", "coordinates": [ -73.989186373447509, 40.759262467345664 ] } },
{ "type": "Feature", "properties": { "id": 25, "name": "John Golden Theatre" }, "geometry": { "type": "Point", "coordinates": [ -73.987940851359468, 40.758722948725854 ] } },
{ "type": "Feature", "properties": { "id": 26, "name": "Bernard B. Jacobs Theatre" }, "geometry": { "type": "Point", "coordinates": [ -73.987708506260475, 40.758633509387153 ] } },
{ "type": "Feature", "properties": { "id": 27, "name": "Gerald Schoenfeld Theatre" }, "geometry": { "type": "Point", "coordinates": [ -73.987419027120751, 40.758515218464041 ] } },
{ "type": "Feature", "properties": { "id": 28, "name": "Booth Theatre" }, "geometry": { "type": "Point", "coordinates": [ -73.987099076492626, 40.758376731262182 ] } },
{ "type": "Feature", "properties": { "id": 29, "name": "Minskoff Theatre" }, "geometry": { "type": "Point", "coordinates": [ -73.98596020461396, 40.757961267925573 ] } },
{ "type": "Feature", "properties": { "id": 30, "name": "Majestic Theatre" }, "geometry": { "type": "Point", "coordinates": [ -73.987994176464156, 40.758425778845833 ] } },
{ "type": "Feature", "properties": { "id": 31, "name": "Broadhurst Theatre" }, "geometry": { "type": "Point", "coordinates": [ -73.987582811370856, 40.758269980513845 ] } },
{ "type": "Feature", "properties": { "id": 32, "name": "Shubert Theatre" }, "geometry": { "type": "Point", "coordinates": [ -73.987251433934588, 40.758140148291602 ] } },
{ "type": "Feature", "properties": { "id": 33, "name": "Hudson Theatre" }, "geometry": { "type": "Point", "coordinates": [ -73.984429012322224, 40.75709859617654 ] } },
{ "type": "Feature", "properties": { "id": 34, "name": "Belasco Theatre" }, "geometry": { "type": "Point", "coordinates": [ -73.983777684257831, 40.756662928262969 ] } },
{ "type": "Feature", "properties": { "id": 35, "name": "St. James Theatre" }, "geometry": { "type": "Point", "coordinates": [ -73.988161769650304, 40.757993004799836 ] } },
{ "type": "Feature", "properties": { "id": 36, "name": "Hayes Theater" }, "geometry": { "type": "Point", "coordinates": [ -73.987849436894294, 40.757857401685712 ] } },
{ "type": "Feature", "properties": { "id": 37, "name": "Lyric Theatre" }, "geometry": { "type": "Point", "coordinates": [ -73.987441880737052, 40.756859123438353 ] } },
{ "type": "Feature", "properties": { "id": 38, "name": "Todd Haimes Theatre" }, "geometry": { "type": "Point", "coordinates": [ -73.9880513105049, 40.75683027124299 ] } },
{ "type": "Feature", "properties": { "id": 39, "name": "Stephen Sondheim Theatre" }, "geometry": { "type": "Point", "coordinates": [ -73.984927982944683, 40.755878141771319 ] } },
{ "type": "Feature", "properties": { "id": 40, "name": "New Amsterdam Theatre" }, "geometry": { "type": "Point", "coordinates": [ -73.988066546249115, 40.756007978411333 ] } },
{ "type": "Feature", "properties": { "id": 41, "name": "Nederlander Theatre" }, "geometry": { "type": "Point", "coordinates": [ -73.988287464539937, 40.755485745051395 ] } }
]
}
